,City,Lat,Lng,Max Temp,Humidity,Cloudiness,Wind Speed,Country,Date
0,Bluff,-46.6,168.33,48.15,76,79,12.12,NZ,1594687808
1,Qaanaaq,77.48,-69.36,43.77,67,2,7.2,GL,1594687809
2,Fairfield,41.27,-73.32,81.0,57,1,5.82,US,1594687811
3,Kapaa,22.08,-159.32,82.4,74,40,14.99,US,1594687812
4,Cao Bang,22.67,106.25,81.59,79,7,2.28,VN,1594687814
5,Mataura,-46.19,168.86,46.09,81,94,3.51,NZ,1594687815
6,Padang,-0.95,100.35,78.66,72,100,3.33,ID,1594687817
7,Martuni,40.14,45.3,57.2,73,86,2.75,AM,1594687818
8,Wanaka,-44.7,169.15,37.99,84,0,1.99,NZ,1594687820
9,Berlevåg,70.86,29.09,45.27,87,20,2.86,NO,1594687822
10,Yellowknife,62.46,-114.35,59.0,100,90,19.46,CA,1594687823
11,East London,-33.02,27.91,57.97,42,0,25.3,ZA,1594687826
12,Bethel,41.37,-73.41,77.0,57,1,5.82,US,1594687828
13,Busselton,-33.65,115.33,51.01,75,0,12.88,AU,1594687830
14,Saskylakh,71.92,114.08,68.77,52,22,13.89,RU,1594687832
15,Rikitea,-23.12,-134.97,73.08,85,100,12.68,PF,1594687833
16,George Town,5.41,100.34,80.6,94,20,1.12,MY,1594687836
17,Tolaga Bay,-38.37,178.3,54.37,89,100,4.41,NZ,1594687837
18,Yershov,51.35,48.28,79.66,33,1,12.84,RU,1594687838
19,Port Elizabeth,-33.92,25.57,53.6,54,60,9.17,ZA,1594687840
20,Yangi Marg`ilon,40.43,71.72,73.4,49,16,4.7,UZ,1594687842
21,Palmerston,-12.49,130.98,75.2,12,0,16.11,AU,1594687846
22,Vao,-22.67,167.48,72.95,75,100,14.99,NC,1594687848
23,Castro,-24.79,-50.01,60.19,92,0,4.92,BR,1594687849
24,Bell Ville,-32.63,-62.69,43.09,61,0,2.35,AR,1594687850
25,Provideniya,64.38,-173.3,50.0,81,100,11.18,RU,1594687852
26,Esperance,-33.87,121.9,51.8,57,90,25.28,AU,1594687853
27,Nikolskoye,59.7,30.79,52.0,87,0,6.71,RU,1594687856
28,Esim,4.87,-2.24,75.24,86,91,11.36,GH,1594687858
29,Barrow,71.29,-156.79,37.4,75,90,11.41,US,1594687564
30,Atuona,-9.8,-139.03,79.27,79,57,18.9,PF,1594687860
31,Ketchikan,55.34,-131.65,62.6,72,90,8.05,US,1594687862
32,Port Lincoln,-34.73,135.87,56.12,73,0,10.04,AU,1594687864
33,Marsá Maţrūḩ,31.35,27.25,71.6,83,0,7.58,EG,1594687866
34,Jamestown,42.1,-79.24,69.01,68,1,9.17,US,1594687824
35,Port Alfred,-33.59,26.89,55.35,46,3,26.02,ZA,1594687868
36,Bukachacha,52.98,116.92,76.33,55,61,3.8,RU,1594687871
37,Bredasdorp,-34.53,20.04,48.2,87,100,13.87,ZA,1594687872
38,Nago,26.59,127.98,87.8,79,1,12.75,JP,1594687874
39,Sola,-13.88,167.55,84.2,74,90,6.93,VU,1594687875
40,Flin Flon,54.77,-101.86,71.78,40,26,9.53,CA,1594687877
41,Hobart,-42.88,147.33,46.4,75,75,9.17,AU,1594687644
42,Cabo San Lucas,22.89,-109.91,91.4,66,5,11.41,MX,1594687850
43,Tessalit,20.2,1.01,91.58,12,0,3.44,ML,1594687881
44,Khatanga,71.97,102.5,70.61,46,57,13.38,RU,1594687882
45,Savannah Bight,16.45,-85.85,82.38,79,100,23.94,HN,1594687884
46,Carnarvon,-24.87,113.63,64.4,88,0,5.82,AU,1594687886
47,Dingle,11.0,122.67,83.48,77,97,0.76,PH,1594687887
48,Nouadhibou,20.93,-17.03,69.8,88,0,18.34,MR,1594687890
49,Hithadhoo,-0.6,73.08,84.52,74,100,8.21,MV,1594687893
50,Salina Cruz,16.17,-95.2,83.08,73,12,2.55,MX,1594687663
51,Cape Town,-33.93,18.42,50.0,71,40,2.24,ZA,1594687896
52,Dikson,73.51,80.55,39.29,98,100,14.38,RU,1594687897
53,Derzhavīnsk,51.1,66.32,67.37,61,0,8.61,KZ,1594687899
54,Río Gallegos,-51.62,-69.22,33.8,86,75,9.17,AR,1594687900
55,Lompoc,34.64,-120.46,64.99,68,5,12.75,US,1594687901
56,Klaksvík,62.23,-6.59,50.0,100,100,8.05,FO,1594687904
57,Luganville,-15.53,167.17,80.6,74,75,3.36,VU,1594687905
58,Rocha,-34.48,-54.33,37.87,73,0,10.11,UY,1594687907
59,Lavrentiya,65.58,-171.0,48.97,69,87,6.06,RU,1594687908
60,Tshikapa,-6.42,20.8,71.78,66,39,2.91,CD,1594687909
61,Oranjemund,-28.55,16.43,52.7,77,2,4.85,NA,1594687911
62,Paramirim,-13.44,-42.24,68.34,66,100,4.36,BR,1594687913
63,Lagoa,39.05,-27.98,68.81,82,29,11.5,PT,1594687914
64,Pevek,69.7,170.31,43.11,72,23,1.77,RU,1594687915
65,Qeshm,26.96,56.27,91.4,75,40,9.17,IR,1594687917
66,Nyurba,63.28,118.33,77.9,54,8,2.46,RU,1594687918
67,Punta Arenas,-53.15,-70.92,35.6,80,96,5.82,CL,1594687920
68,Hīt,33.64,42.83,86.97,16,0,11.9,IQ,1594687922
69,Taunggyi,20.78,97.03,63.95,100,100,3.11,MM,1594687924
70,Mahébourg,-20.41,57.7,69.8,88,40,9.17,MU,1594687926
71,Saint-Leu,-21.15,55.28,68.0,64,19,4.7,RE,1594687928
72,Ribeira Grande,38.52,-28.7,68.77,81,13,12.46,PT,1594687930
73,Paamiut,61.99,-49.67,42.57,87,0,5.44,GL,1594687933
74,Nishihara,26.18,127.76,87.8,66,40,12.75,JP,1594687934
75,Havøysund,71.0,24.66,44.6,93,0,9.17,NO,1594687936
76,Vila Velha,-20.33,-40.29,75.2,78,0,11.41,BR,1594687937
77,Hermanus,-34.42,19.23,48.99,79,100,13.0,ZA,1594687773
78,Fort Nelson,58.81,-122.7,73.4,40,75,13.87,CA,1594687940
79,Thompson,55.74,-97.86,64.4,93,75,2.62,CA,1594687902
80,Talnakh,69.49,88.4,53.6,93,75,2.24,RU,1594687943
81,Upernavik,72.79,-56.15,40.66,88,100,14.52,GL,1594687944
82,Amla,21.93,78.12,74.84,91,100,6.26,IN,1594687946
83,Clyde River,70.47,-68.59,55.4,54,1,6.93,CA,1594687948
84,Verín,41.94,-7.44,61.0,30,100,3.49,ES,1594687950
85,Solnechnyy,50.72,136.63,73.44,61,26,5.97,RU,1594687952
86,Tarakan,3.3,117.63,79.92,84,100,4.85,ID,1594687752
87,Norman Wells,65.28,-126.83,71.6,46,75,2.24,CA,1594687955
88,Albany,42.6,-73.97,81.0,57,3,1.01,US,1594687699
89,San Miguel,13.48,-88.18,87.8,66,8,2.26,SV,1594687958
90,Butaritari,3.07,172.79,80.78,74,89,1.99,KI,1594687960
91,Seoul,37.57,126.98,68.0,77,90,9.06,KR,1594687961
92,Sompeta,18.93,84.6,83.28,78,98,9.19,IN,1594687963
93,Salé,34.04,-6.82,73.4,88,75,6.93,MA,1594687966
94,Karpogory,64.0,44.45,54.91,94,100,10.31,RU,1594687968
95,Carballo,43.21,-8.69,60.8,87,55,4.7,ES,1594687969
96,George,-33.96,22.46,48.2,66,80,25.28,ZA,1594687771
97,Bac Lieu,9.29,105.72,82.31,82,92,7.96,VN,1594687972
98,Inhambane,-23.86,35.38,61.14,73,0,11.12,MZ,1594687974
99,Sitka,57.05,-135.33,55.4,82,90,12.75,US,1594687856
100,Bintulu,3.17,113.03,77.0,94,40,5.73,MY,1594687976
101,Ushuaia,-54.8,-68.3,33.8,80,40,19.46,AR,1594687978
102,Porto Santo,33.07,-16.34,69.8,73,75,14.99,PT,1594687979
103,Avarua,-21.21,-159.78,71.6,56,99,8.05,CK,1594687981
104,Hinton,53.4,-117.59,62.89,38,97,10.74,CA,1594687982
105,Bubaque,11.28,-15.83,80.44,85,100,16.22,GW,1594687984
106,Vaini,-21.2,-175.2,75.2,69,40,11.41,TO,1594687986
107,Talcahuano,-36.72,-73.12,48.2,81,3,8.05,CL,1594687988
108,Farmington,36.73,-108.22,88.0,22,75,20.8,US,1594687921
109,Otradnoye,59.78,30.82,52.0,87,0,6.71,RU,1594687991
110,Naze,28.37,129.48,86.0,79,75,10.29,JP,1594687992
111,Gladstone,-23.85,151.25,62.6,33,0,6.93,AU,1594687994
112,Saint-Philippe,-21.36,55.77,68.0,64,50,4.7,RE,1594687995
113,Puerto Ayora,-0.74,-90.35,68.0,93,26,7.78,EC,1594687996
114,Beringovskiy,63.05,179.32,52.43,85,97,4.76,RU,1594687998
115,San Quintín,30.48,-115.95,74.52,63,0,12.44,MX,1594688000
116,Iqaluit,63.75,-68.51,62.6,39,20,13.87,CA,1594688001
117,Mount Isa,-20.73,139.5,60.8,29,56,17.22,AU,1594688003
118,Catió,11.28,-15.25,77.61,89,100,7.7,GW,1594688004
119,Pampa,35.54,-100.96,104.0,21,1,27.51,US,1594688005
120,Tuatapere,-46.13,167.68,47.88,73,55,3.76,NZ,1594688008
121,Saint Paul Harbor,57.79,-152.41,57.2,71,90,10.29,US,1594687912
122,Ostrovnoy,68.05,39.51,45.46,85,91,3.8,RU,1594688010
123,Dzhebariki-Khaya,62.22,135.8,79.14,58,36,4.52,RU,1594688012
124,Chokurdakh,70.63,147.92,66.72,33,22,13.85,RU,1594688013
125,Pisco,-13.7,-76.22,60.01,93,90,4.7,PE,1594688014
126,Acaraú,-2.89,-40.12,76.64,74,15,11.83,BR,1594688016
127,San Rafael,-34.62,-68.33,41.05,68,37,4.14,AR,1594687891
128,Moree,-29.47,149.85,48.2,81,90,16.11,AU,1594688018
129,Cayenne,4.93,-52.33,78.8,94,5,7.2,GF,1594687735
130,Hilo,19.73,-155.09,82.4,61,20,12.75,US,1594688021
131,Ixtapa,20.7,-105.2,86.0,70,75,10.29,MX,1594688022
132,Visby,57.64,18.3,50.0,100,86,2.24,SE,1594688023
133,Tasiilaq,65.61,-37.64,42.8,81,76,3.36,GL,1594688024
134,Laas,46.62,10.7,55.0,100,90,8.05,IT,1594688026
135,Merritt Island,28.54,-80.67,89.6,62,40,4.7,US,1594687928
136,Luau,-10.71,22.22,59.04,47,100,4.83,AO,1594688028
137,Danville,36.59,-79.39,82.0,74,20,0.67,US,1594688029
138,Cap-aux-Meules,47.38,-61.86,64.4,88,75,10.29,CA,1594688030
139,Shingū,33.73,135.98,77.0,100,75,10.29,JP,1594688032
140,Verkhotur'ye,58.86,60.81,61.59,74,0,3.33,RU,1594688033
141,Umm Kaddadah,13.6,26.69,84.97,49,0,16.93,SD,1594688035
142,Imeni Poliny Osipenko,52.42,136.49,73.87,65,2,2.19,RU,1594688038
143,Coyhaique,-45.58,-72.07,32.0,95,20,3.36,CL,1594688039
144,Singaraja,-8.11,115.09,82.24,66,0,2.21,ID,1594688040
145,Cherskiy,68.75,161.3,65.7,51,79,3.06,RU,1594688041
146,Kiunga,-6.12,141.29,79.77,83,95,3.8,PG,1594688044
147,Isangel,-19.55,169.27,80.6,61,75,6.93,VU,1594688045
148,Grand-Santi,4.25,-54.38,72.55,89,0,1.28,GF,1594688047
149,Constitución,-35.33,-72.42,52.75,77,100,6.2,CL,1594688048
150,Montepuez,-13.13,39.0,63.68,87,100,7.49,MZ,1594688049
151,Kavieng,-2.57,150.8,83.03,74,100,8.93,PG,1594688050
152,Muaná,-1.53,-49.22,75.43,91,1,5.23,BR,1594688052
153,Akdepe,42.06,59.38,75.2,44,0,6.93,TM,1594688053
154,Tsumeb,-19.23,17.72,44.94,55,0,2.39,NA,1594688054
155,Senneterre,48.38,-77.23,69.8,68,40,9.17,CA,1594688055
156,Severo-Kuril'sk,50.68,156.12,50.67,85,100,2.59,RU,1594688057
157,Klyuchi,52.27,79.17,63.39,82,100,7.11,RU,1594688059
158,Peniche,39.36,-9.38,66.99,87,0,5.01,PT,1594688060
159,Yerbogachën,61.28,108.01,69.96,62,100,3.0,RU,1594688062
160,Hofn,64.25,-15.21,50.76,82,100,3.6,IS,1594688063
161,Yangambi,0.81,24.43,71.17,95,99,2.19,CD,1594688064
162,New Norfolk,-42.78,147.06,45.0,91,13,1.48,AU,1594688065
163,Piaçabuçu,-10.41,-36.43,74.32,87,5,6.33,BR,1594688067
164,Swan Hill,-35.34,143.55,54.91,68,0,9.46,AU,1594688069
165,Torbay,47.67,-52.73,69.8,94,75,12.75,CA,1594687900
166,Saldanha,-33.01,17.94,50.0,81,12,14.99,ZA,1594688071
167,Boende,-0.22,20.87,71.04,94,100,1.77,CD,1594688073
168,Sur,22.57,59.53,83.44,70,0,9.06,OM,1594688074
169,Chui,-33.7,-53.46,38.1,75,0,9.73,UY,1594687869
170,Airai,-8.93,125.41,65.43,62,66,5.59,TL,1594688076
171,Coahuayana Viejo,18.73,-103.68,80.6,74,40,2.98,MX,1594688078
172,San Francisco,37.77,-122.42,68.0,59,20,18.34,US,1594687943
173,São João da Barra,-21.64,-41.05,72.45,80,0,6.85,BR,1594688080
174,Ambilobe,-13.2,49.05,64.65,80,64,3.02,MG,1594688081
175,Tiarei,-17.53,-149.33,80.6,78,75,14.99,PF,1594688083
176,Faya,18.39,42.45,71.6,52,6,6.35,SA,1594688084
177,La Ronge,55.1,-105.28,64.4,59,75,11.41,CA,1594688085
178,Sainte-Agathe-des-Monts,46.05,-74.28,70.0,83,75,3.36,CA,1594687892
179,Geraldton,-28.77,114.6,59.0,93,75,13.87,AU,1594687891
180,Buchanan,5.88,-10.05,75.33,89,100,12.1,LR,1594688089
181,Abu Samrah,35.3,37.18,70.41,77,0,8.68,SY,1594688090
182,Lüderitz,-26.65,15.16,55.4,66,0,16.11,NA,1594688091
183,Westport,41.14,-73.36,84.2,39,1,11.41,US,1594687923
184,Ola,59.58,151.28,61.63,69,100,7.49,RU,1594688094
185,Yabēlo,4.88,38.08,60.15,69,100,8.21,ET,1594688095
186,Obo,5.4,26.49,66.15,97,99,3.18,CF,1594688096
187,Port Antonio,18.18,-76.46,87.8,62,20,19.46,JM,1594688097
188,Kaitangata,-46.28,169.85,48.99,71,38,8.99,NZ,1594688099
189,Bantogon,6.53,124.03,81.61,74,77,6.82,PH,1594688100
190,Hamilton,39.18,-84.53,81.0,60,0,1.01,US,1594687840
191,Dobryanka,58.46,56.42,66.2,93,0,8.95,RU,1594688102
192,Kysyl-Syr,63.9,122.76,78.13,40,0,5.26,RU,1594688103
193,Asău,46.43,26.4,50.0,87,35,3.49,RO,1594688105
194,Loíza,18.43,-65.88,84.2,83,75,10.29,PR,1594688107
195,Tibacuy,4.35,-72.46,75.78,88,91,2.46,CO,1594688108
196,Arraial do Cabo,-22.97,-42.03,73.38,70,4,3.6,BR,1594687822
197,Marolambo,-20.05,48.12,58.37,93,18,1.86,MG,1594688111
198,Kumul,42.8,93.45,77.16,28,0,5.73,CN,1594688113
199,Paranaíba,-19.68,-51.19,78.31,47,29,3.69,BR,1594688116
200,Togur,58.36,82.83,65.19,76,5,6.8,RU,1594688117
201,Jinchang,38.5,102.17,74.59,42,20,2.82,CN,1594688119
202,Richards Bay,-28.78,32.04,60.49,38,0,11.41,ZA,1594688121
203,Hong Kong,22.29,114.16,89.01,74,0,8.01,HK,1594687834
204,San Andrés,12.58,-81.7,82.4,88,40,9.17,CO,1594688123
205,Poso,-1.4,120.75,76.41,88,100,7.02,ID,1594688124
206,Honiara,-9.43,159.95,77.0,94,90,5.82,SB,1594687844
207,Narsaq,60.92,-46.05,53.6,76,100,4.7,GL,1594688127
208,Fairbanks,64.84,-147.72,66.0,63,90,13.87,US,1594688128
209,Yulara,-25.24,130.99,50.0,46,0,8.05,AU,1594688129
210,Ponnāni,10.77,75.93,77.0,88,75,6.93,IN,1594688130
211,Hualmay,-11.1,-77.61,61.95,82,0,7.38,PE,1594688132
212,Nelson Bay,-32.72,152.15,60.8,77,75,28.86,AU,1594688133
213,Labytnangi,66.66,66.42,52.95,68,71,14.58,RU,1594688134
214,Tigil',57.8,158.67,71.29,53,100,5.21,RU,1594688135
215,Dom Pedro,-4.48,-44.45,73.53,90,0,3.13,BR,1594688139
216,Fukuechō,32.69,128.84,71.6,94,75,6.93,JP,1594688140
217,Tuktoyaktuk,69.45,-133.04,62.6,63,40,9.17,CA,1594688139
218,Nanortalik,60.14,-45.24,44.44,94,100,4.43,GL,1594688143
219,Bilma,18.69,12.92,88.63,30,26,12.5,NE,1594688144
220,Pacifica,37.61,-122.49,66.2,82,75,5.82,US,1594688145
221,Manali,13.17,80.27,80.6,83,40,3.36,IN,1594687876
222,Sebrovo,50.1,43.3,73.0,64,0,4.0,RU,1594688148
223,Kontagora,10.4,5.47,71.49,93,55,5.93,NG,1594688149
224,Belyy Yar,53.6,91.39,66.2,82,100,6.71,RU,1594688150
225,Evensk,61.95,159.23,58.21,84,22,11.14,RU,1594688151
226,Faanui,-16.48,-151.75,79.0,81,100,16.13,PF,1594688153
227,Zabaykal'sk,49.63,117.32,72.73,67,100,4.03,RU,1594688155
228,Dongsheng,39.82,109.98,74.25,47,52,8.86,CN,1594688156
229,Port Hardy,50.7,-127.42,62.6,67,40,11.41,CA,1594688159
230,Eureka,40.8,-124.16,66.0,37,1,1.01,US,1594688160
231,Palmer,42.16,-72.33,73.4,78,40,3.36,US,1594688161
232,Ilulissat,69.22,-51.1,46.4,70,100,3.36,GL,1594688162
233,Huntsville,34.73,-86.59,86.0,58,40,5.82,US,1594688164
234,Smithers,54.78,-127.17,66.2,42,75,11.41,CA,1594688005
235,Gáldar,28.15,-15.65,69.8,77,20,28.86,ES,1594688166
236,Leningradskiy,69.38,178.42,41.81,78,99,11.48,RU,1594688167
237,Winnemucca,40.97,-117.74,93.2,7,1,12.75,US,1594688169
238,Sneek,53.03,5.66,63.0,77,90,4.7,NL,1594688170
239,Palana,59.12,159.97,56.7,78,100,8.75,RU,1594688171
240,Lensk,60.73,114.93,77.25,40,0,5.19,RU,1594688137
241,Tiksi,71.69,128.87,40.86,96,100,9.57,RU,1594688175
242,Port Blair,11.67,92.75,82.35,78,100,12.3,IN,1594688101
243,Pathein,16.78,94.73,78.57,86,100,3.04,MM,1594688178
244,Mananara,-16.17,49.77,64.81,89,10,4.43,MG,1594688181
245,Wajir,1.75,40.06,75.85,68,47,19.64,KE,1594688182
246,Bandarbeyla,9.49,50.81,78.96,67,99,26.08,SO,1594688183
247,Caniço,32.63,-16.85,69.8,68,20,4.7,PT,1594688184
248,Ballina,-28.87,153.57,59.0,54,0,14.99,AU,1594688186
249,Ţahţā,26.77,31.5,80.6,26,0,8.05,EG,1594688187
250,Christchurch,-43.53,172.63,48.99,75,0,3.36,NZ,1594688099
251,São Raimundo Nonato,-9.02,-42.7,72.7,59,97,1.32,BR,1594688024
252,Bon Air,37.52,-77.56,82.99,71,0,1.07,US,1594687931
253,Mount Gambier,-37.83,140.77,48.2,100,0,8.05,AU,1594688192
254,Lumby,50.25,-118.97,73.4,31,1,3.36,CA,1594688193
255,Saint-Augustin,51.23,-58.65,52.5,86,100,16.67,CA,1594688195
256,Qarayeri,40.79,46.31,73.4,69,75,13.87,AZ,1594688197
257,Lata,40.16,-8.33,72.0,73,0,1.66,PT,1594688198
258,Olivenza,38.68,-7.1,82.0,36,0,4.52,ES,1594688199
259,Pemangkat,1.17,108.97,75.51,94,100,11.16,ID,1594688201
260,Dilla,6.41,38.31,59.59,83,72,3.29,ET,1594688203
261,Havre-St-Pierre,50.23,-63.6,55.4,71,90,13.87,CA,1594688205
262,Longyearbyen,78.22,15.64,46.4,81,75,5.82,SJ,1594688206
263,Amuntai,-2.42,115.25,80.06,82,3,0.78,ID,1594688208
264,Broome,42.25,-75.83,66.99,77,75,8.05,US,1594688210
265,Mangochi,-14.48,35.26,60.75,84,0,4.21,MW,1594688211
266,Yārāda,17.65,83.27,78.8,94,90,2.24,IN,1594688213
267,Lorengau,-2.02,147.27,83.68,70,77,5.12,PG,1594688214
268,Kalmunai,7.42,81.82,80.82,77,100,7.18,LK,1594688215
269,Bonthe,7.53,-12.51,76.1,88,100,10.49,SL,1594688217
270,Tota,5.56,-72.99,48.67,91,42,3.24,CO,1594688221
271,São Filipe,14.9,-24.5,77.81,85,7,4.83,CV,1594688222
272,Biak,-0.91,122.88,79.43,81,81,4.47,ID,1594688223
273,Bodaybo,57.85,114.19,78.49,63,82,1.54,RU,1594688121
274,Yeppoon,-23.13,150.73,62.6,33,0,16.11,AU,1594688048
275,Phalaborwa,-23.94,31.14,60.8,26,0,6.93,ZA,1594688227
276,Carutapera,-1.2,-46.02,74.68,93,17,5.53,BR,1594688228
277,Ende,-8.84,121.66,81.93,61,11,5.75,ID,1594688230
278,Hasaki,35.73,140.83,75.2,94,75,9.17,JP,1594688231
279,Deputatsky,69.3,139.9,51.12,93,100,6.4,RU,1594688232
280,Miles City,46.41,-105.84,77.0,20,1,13.87,US,1594688040
281,Anjiang,27.32,110.1,85.71,67,80,3.74,CN,1594688234
282,Vardø,70.37,31.11,41.0,100,20,9.17,NO,1594688236
283,Ancud,-41.87,-73.82,39.99,93,100,6.49,CL,1594688237
284,Oodweyne,9.41,45.06,73.2,54,100,16.93,SO,1594688238
285,Cabatuan,10.88,122.49,83.89,74,100,1.63,PH,1594688239
286,Gizo Government Station,-8.1,156.84,83.86,70,100,5.82,SB,1594688241
287,Borogontsy,62.67,131.17,75.2,51,0,7.58,RU,1594688242
288,Manokwari,-0.87,134.08,83.08,71,89,7.38,ID,1594688243
289,Mar del Plata,-38.0,-57.56,42.01,60,20,14.99,AR,1594688244
290,Vila Franca do Campo,37.72,-25.43,66.2,82,20,8.05,PT,1594688245
291,Smirnykh,49.75,142.83,62.33,77,95,5.39,RU,1594688247
292,Dombarovskiy,50.76,59.54,71.71,54,0,10.36,RU,1594688249
293,Teya,60.38,92.63,68.85,61,0,4.76,RU,1594688250
294,Metro,-5.11,105.31,77.94,85,100,2.01,ID,1594688251
295,Ponta do Sol,32.67,-17.1,69.8,68,20,4.7,PT,1594688253
296,Yambio,4.57,28.4,67.35,96,100,2.62,SS,1594688047
297,Rovaniemi,66.5,25.72,51.8,93,75,6.93,FI,1594688126
298,Pahrump,36.21,-115.98,108.0,9,0,10.0,US,1594688256
299,Mwinilunga,-11.74,24.43,52.23,65,0,2.82,ZM,1594688258
300,Mossamedes,-15.2,12.15,61.43,81,0,1.12,AO,1594688259
301,Ossora,59.24,163.07,59.97,77,100,9.8,RU,1594688260
302,Aksu,41.12,80.26,75.87,39,100,16.96,CN,1594688237
303,Agirish,61.92,63.02,53.92,66,38,7.11,RU,1594688262
304,Micheweni,-4.97,39.83,75.76,82,0,11.43,TZ,1594688264
305,Nicoya,10.15,-85.45,82.4,74,75,3.36,CR,1594688265
306,Sīrjān,29.45,55.68,70.21,41,0,7.07,IR,1594688266
307,Abu Dhabi,24.47,54.37,98.6,53,8,8.05,AE,1594688263
308,Codrington,-38.27,141.97,52.81,78,2,6.82,AU,1594688269
309,Los Llanos de Aridane,28.66,-17.92,69.8,77,75,12.75,ES,1594688270
310,Sri Aman,1.24,111.46,75.2,94,40,0.67,MY,1594688271
311,Helena,46.59,-112.04,77.0,15,1,12.75,US,1594688053
312,Kaeo,-35.1,173.78,61.0,3,93,5.99,NZ,1594688275
313,Bambous Virieux,-20.34,57.76,69.8,88,40,9.17,MU,1594688276
314,Solton,52.84,86.48,63.48,90,75,3.74,RU,1594688277
315,Korla,41.76,86.15,75.0,56,45,10.33,CN,1594688278
316,Ahipara,-35.17,173.17,62.38,70,82,5.44,NZ,1594688225
317,Terney,45.05,136.61,67.95,70,48,5.35,RU,1594688281
318,San Ignacio,17.16,-89.07,82.0,88,20,5.64,BZ,1594688282
319,Amga,60.9,131.96,76.64,65,96,3.38,RU,1594688283
320,Minsk,53.9,27.57,48.2,93,0,6.71,BY,1594688108
321,Buala,-8.14,159.59,85.6,65,70,7.29,SB,1594688241
322,Senanga,-16.12,23.27,49.93,43,0,4.85,ZM,1594688287
323,Guerrero Negro,27.98,-114.06,76.39,56,0,19.95,MX,1594688288
324,Byron Bay,-28.65,153.62,59.0,54,1,14.99,AU,1594688289
325,Ayan,56.45,138.17,59.14,75,8,14.25,RU,1594688290
326,Golden,39.76,-105.22,87.01,31,75,18.34,US,1594688292
327,Samarai,-10.62,150.67,79.14,88,84,9.78,PG,1594688293
328,Kerrville,30.05,-99.14,102.2,14,1,10.29,US,1594688294
329,Celestún,20.87,-90.4,83.71,74,17,16.04,MX,1594688295
330,Tres Arroyos,-38.37,-60.28,36.43,73,0,12.39,AR,1594688296
331,Atbasar,51.8,68.33,66.07,68,0,5.55,KZ,1594688298
332,Barra de Tecoanapa,16.52,-98.75,83.64,70,1,5.86,MX,1594688300
333,Maxixe,-23.86,35.35,59.4,72,0,9.89,MZ,1594688301
334,Amberley,39.2,-84.43,81.0,51,75,8.05,US,1594688303
335,Casino,-28.87,153.05,60.8,44,0,11.41,AU,1594688119
336,San Patricio,19.22,-104.7,87.8,74,20,11.41,MX,1594688305
337,Mezen',65.85,44.24,50.83,85,100,7.34,RU,1594688306
338,Plettenberg Bay,-34.05,23.37,52.34,61,82,22.39,ZA,1594688307
339,Kasimov,54.94,41.4,61.14,93,65,3.65,RU,1594688309
340,Marawi,8.0,124.29,82.99,77,100,4.0,PH,1594688310
341,Port Macquarie,-31.43,152.92,55.0,87,90,17.22,AU,1594688311
342,Makakilo City,21.35,-158.09,87.8,45,20,11.41,US,1594688312
343,Vanavara,60.34,102.28,72.36,53,42,4.27,RU,1594688314
344,Leona Vicario,20.97,-87.19,84.2,70,40,9.17,MX,1594688316
345,Ecoporanga,-18.37,-40.83,67.03,89,0,1.54,BR,1594688318
346,Thessalon,46.25,-83.57,75.2,47,75,3.36,CA,1594688319
347,Morón,-34.65,-58.62,46.0,52,0,1.01,AR,1594688320
348,Lebu,-37.62,-73.65,48.06,77,1,3.04,CL,1594688128
349,Srednekolymsk,67.45,153.68,68.31,34,29,11.45,RU,1594688322
350,Macao,22.2,113.55,87.8,70,20,6.93,MO,1594688055
351,Grindavik,63.84,-22.43,48.2,93,75,3.36,IS,1594688325
352,Nkhata Bay,-11.61,34.29,66.02,72,0,4.52,MW,1594688326
353,Tosya,41.02,34.04,56.46,79,2,3.11,TR,1594688327
354,Cidreira,-30.18,-50.21,52.2,68,0,14.43,BR,1594688138
355,Sattenapalle,16.4,80.18,78.8,94,90,5.21,IN,1594688330
356,Bundaberg,-24.85,152.35,62.01,47,0,20.8,AU,1594688331
357,Mumford,5.26,-0.76,74.82,89,85,11.25,GH,1594688332
358,Akropong,5.97,-0.09,77.0,94,90,12.75,GH,1594688333
359,Waddān,29.16,16.14,69.01,78,0,5.53,LY,1594688335
360,Pueblo Nuevo,23.38,-105.38,67.3,94,72,4.21,MX,1594688336
361,Talaya,61.38,152.75,65.19,61,98,6.24,RU,1594688337
362,Alappuzha,9.49,76.33,79.25,84,100,7.02,IN,1594688281
363,Karpathos,35.51,27.21,75.2,73,0,32.21,GR,1594688339
364,Pinyug,60.25,47.78,63.48,97,100,5.88,RU,1594688342
365,Laguna,38.42,-121.42,91.4,27,1,10.29,US,1594688343
366,Miandrivazo,-19.52,45.47,65.05,80,0,1.74,MG,1594688344
367,Kutum,14.2,24.67,79.34,41,24,5.91,SD,1594688346
368,Yatou,37.15,122.38,71.47,72,61,13.87,CN,1594688155
369,Antalaha,-14.9,50.28,65.14,86,29,6.91,MG,1594688348
370,Prado,-17.34,-39.22,71.85,85,3,5.75,BR,1594688349
371,Khandyga,62.67,135.6,78.44,57,21,4.94,RU,1594688350
372,Addanki,15.82,79.98,81.05,80,100,5.17,IN,1594688352
373,Anadyr,64.75,177.48,51.8,87,75,15.66,RU,1594688353
374,Tatishchevo,51.67,45.6,75.99,45,0,5.99,RU,1594688354
375,Souillac,-20.52,57.52,69.8,88,40,9.17,MU,1594688175
376,Moro,26.66,68.0,89.29,63,0,5.35,PK,1594688358
377,Karratha,-20.74,116.85,74.19,32,0,12.82,AU,1594688359
378,Talara,-4.58,-81.27,63.21,88,54,16.98,PE,1594688360
379,Sistranda,63.73,8.83,48.2,93,100,4.7,NO,1594688361
380,Yumen,40.28,97.2,71.8,41,4,8.84,CN,1594688302
381,Bariloche,-41.15,-71.31,28.4,74,100,5.82,AR,1594688364
382,Aklavik,68.22,-135.01,69.8,35,40,5.82,CA,1594688277
383,Vanimo,-2.67,141.3,85.35,62,44,4.94,PG,1594688366
384,Maragogi,-9.01,-35.22,73.78,85,4,3.85,BR,1594688307
385,Mareeba,-17.0,145.43,73.4,33,6,13.87,AU,1594688368
386,Keetmanshoop,-26.58,18.13,44.6,87,0,11.41,NA,1594688370
387,Saint Anthony,45.02,-93.22,82.99,51,40,18.34,US,1594688371
388,Ridgecrest,35.62,-117.67,107.6,4,1,21.92,US,1594688192
389,Saint George,37.1,-113.58,107.6,9,1,20.8,US,1594688184
390,Sangmélima,2.93,11.98,66.97,98,72,4.47,CM,1594688171
391,Daru,-9.08,143.21,78.85,86,79,17.02,PG,1594688229
392,Ilebo,-4.32,20.58,70.07,94,4,1.03,CD,1594688378
393,Itapora,-22.08,-54.79,72.72,68,65,5.12,BR,1594688379
394,Ca Mau,9.18,105.15,83.52,79,71,7.0,VN,1594688165
395,Lātehār,23.75,84.5,81.09,76,100,2.42,IN,1594688383
396,Odesskoye,54.21,72.97,68.68,81,0,6.87,RU,1594688384
397,Bay Roberts,47.6,-53.26,66.99,1,99,10.51,CA,1594688385
398,Siguiri,11.67,-9.5,70.48,91,100,3.47,GN,1594688387
399,Mandalī,33.75,45.55,86.29,16,0,5.77,IQ,1594688389
400,Newport,51.59,-3.0,61.0,97,46,5.93,GB,1594688269
401,Fier,40.72,19.56,67.86,57,0,5.75,AL,1594688391
402,Longford,53.73,-7.8,51.01,99,99,5.99,IE,1594688393
403,Gambēla,8.25,34.58,71.42,72,100,2.73,ET,1594688394
404,Cumberland,35.05,-78.87,80.6,78,1,4.7,US,1594688183
405,Alice Springs,-23.7,133.88,52.0,53,0,6.93,AU,1594688272
406,Paignton,50.44,-3.57,61.0,9,73,3.0,GB,1594688397
407,Mehamn,71.04,27.85,45.3,84,22,3.49,NO,1594688179
408,Hsinchu,24.8,120.97,91.99,52,100,1.01,TW,1594688401
409,Murgab,37.5,61.97,78.8,44,75,3.06,TM,1594688402
410,Sioux Lookout,50.1,-91.92,77.0,47,75,9.17,CA,1594688273
411,Alofi,-19.06,-169.92,77.0,57,40,23.04,NU,1594688406
412,Dakar,14.69,-17.44,82.4,83,89,4.7,SN,1594688176
413,Santa Cruz de la Sierra,-17.8,-63.17,75.2,88,75,3.36,BO,1594688410
414,Assiniboia,49.63,-105.98,64.8,44,13,15.86,CA,1594688411
415,Homer,59.64,-151.55,57.2,76,40,5.82,US,1594688412
416,Flinders,-34.58,150.86,57.0,83,90,14.0,AU,1594688297
417,Prince George,53.92,-122.75,66.99,45,20,6.93,CA,1594688407
418,Namasuba,0.69,32.42,61.93,89,70,0.47,UG,1594688416
419,Zemio,5.03,25.14,68.09,97,98,1.3,CF,1594688417
420,Luga,58.74,29.85,48.0,94,0,3.58,RU,1594688418
421,Nandurbar,21.37,74.25,79.03,82,100,15.52,IN,1594688419
422,Rawson,-43.3,-65.1,38.41,72,0,17.6,AR,1594688249
423,Fortuna,40.6,-124.16,66.99,67,20,16.11,US,1594688422
424,Aripuanã,-9.17,-60.63,78.71,54,36,1.57,BR,1594688423
425,Jaru,-10.44,-62.47,78.96,61,4,2.93,BR,1594688424
426,Praia da Vitória,38.73,-27.07,69.8,77,20,10.02,PT,1594688425
427,Santo André,-23.66,-46.54,73.99,56,3,5.82,BR,1594688427
428,Jerome,42.72,-114.52,82.4,17,1,19.46,US,1594688428
429,Sibu,2.3,111.82,75.2,94,40,3.36,MY,1594688209
430,Itapé,-25.85,-56.62,55.4,84,42,8.23,PY,1594688430
431,Forsytheganj,52.63,29.73,49.98,92,0,9.4,BY,1594688298
432,Qasigiannguit,68.82,-51.19,46.4,70,100,3.36,GL,1594688433
433,Tsimmerbude,54.67,20.13,51.8,87,40,4.47,RU,1594688434
434,Simbahan,6.3,120.58,82.42,74,100,7.11,PH,1594688435
435,Grand Gaube,-20.01,57.66,68.0,83,0,3.0,MU,1594688437
436,Mayo,38.89,-76.51,80.6,69,75,3.74,US,1594688437
437,Lipin Bor,60.26,37.98,55.44,96,100,7.36,RU,1594688439
438,Ugoofaaru,5.67,73.0,83.93,71,29,5.59,MV,1594688234
439,Puerto Nariño,-3.77,-70.38,77.0,94,75,5.82,CO,1594688441
440,Waspán,14.74,-83.97,82.4,88,75,9.17,NI,1594688443
441,Satipo,-11.25,-74.64,72.37,71,46,1.7,PE,1594688444
442,Vawkavysk,53.16,24.45,48.43,94,0,5.28,BY,1594688225
443,Sovetskiy,61.36,63.58,57.76,75,95,6.02,RU,1594688446
444,Shubarshi,48.59,57.19,79.07,30,0,9.44,KZ,1594688447
445,Atar,20.52,-13.05,93.6,18,37,6.71,MR,1594688320
446,Hanyang,32.14,105.51,71.11,95,100,0.38,CN,1594688450
447,Muisne,0.6,-80.03,75.06,89,95,10.42,EC,1594688451
448,Randazzo,37.88,14.95,75.99,73,16,5.99,IT,1594688453
449,Oddur,4.12,43.89,70.99,80,64,17.78,SO,1594688455
450,Kahului,20.89,-156.47,89.6,38,20,24.16,US,1594688231
451,Islamkot,24.7,70.18,84.18,71,50,11.32,PK,1594688457
452,Kruisfontein,-34.0,24.73,47.48,71,100,19.53,ZA,1594688185
453,Bathsheba,13.22,-59.52,82.4,78,40,16.11,BB,1594688459
454,Onguday,50.75,86.15,55.33,84,100,2.3,RU,1594688462
455,Algiers,36.75,3.04,75.2,88,40,6.93,DZ,1594688309
456,Beloha,-25.17,45.05,58.14,93,28,3.02,MG,1594688465
457,Lufilufi,-13.87,-171.6,84.0,83,82,8.01,WS,1594688466
458,Tahoua,14.89,5.27,83.75,50,100,8.28,NE,1594688467
459,Walvis Bay,-22.96,14.51,53.01,93,0,3.36,NA,1594688255
460,Kostanay,53.17,63.58,66.2,63,0,3.98,KZ,1594688404
461,Haines Junction,60.75,-137.51,62.2,38,100,7.94,CA,1594688461
462,Linxia Chengguanzhen,35.6,103.21,60.06,85,100,3.62,CN,1594688473
463,Sabak,3.77,100.99,75.2,100,20,2.24,MY,1594688474
464,Hambantota,6.12,81.12,78.8,100,75,6.93,LK,1594688475
465,Khani,41.96,42.96,69.8,94,90,2.24,GE,1594688477
466,San Cristobal,7.77,-72.22,65.66,89,100,3.33,VE,1594688219
467,Darhan,49.49,105.92,71.13,61,93,2.46,MN,1594688209
468,Bam,29.11,58.36,83.73,33,79,3.87,IR,1594688481
469,Cochrane,51.18,-114.47,64.0,44,90,10.29,CA,1594688323
470,Hervey Bay,-25.3,152.85,60.01,53,0,11.01,AU,1594688484
471,Rome,43.21,-75.46,73.4,64,20,10.29,US,1594688219
472,Masvingo,-20.06,30.83,49.84,55,0,3.85,ZW,1594688340
473,Chifeng,42.27,118.96,79.02,49,100,7.18,CN,1594688487
474,Tilichiki,60.47,166.1,55.24,83,100,6.6,RU,1594688465
475,Egvekinot,66.32,-179.17,48.74,72,98,6.44,RU,1594688425
476,Elizabeth City,36.29,-76.25,75.2,94,20,5.82,US,1594688261
477,Ilihan,13.63,121.08,82.31,76,100,4.29,PH,1594688495
478,Arlit,18.74,7.39,93.58,28,100,15.08,NE,1594688457
479,Prince Rupert,54.32,-130.32,60.8,77,75,4.7,CA,1594688385
480,Pangnirtung,66.15,-65.71,54.66,54,100,3.44,CA,1594688472
481,Manggar,-2.88,108.27,81.66,79,100,11.12,ID,1594688501
482,Suba,10.84,121.01,83.53,71,100,5.39,PH,1594688503
483,Bengkulu,-3.8,102.27,77.16,84,100,4.5,ID,1594688490
484,Juba,4.85,31.58,70.72,91,87,3.47,SS,1594688508
485,Nyrob,60.73,56.72,60.8,71,69,3.44,RU,1594688509
486,St. George's,12.06,-61.75,82.4,83,20,9.17,GD,1594688305
487,Sīwah,29.2,25.52,75.09,49,0,6.87,EG,1594688513
488,Chu,43.6,73.76,73.0,77,7,6.96,KZ,1594688514
489,Tsybuliv,49.08,29.85,51.04,87,1,12.35,UA,1594688515
490,Kamphaeng Phet,16.48,99.52,77.47,91,100,1.16,TH,1594688516
491,Sakakah,29.97,40.21,89.6,14,0,8.05,SA,1594688435
492,Glendive,47.11,-104.71,75.99,29,20,12.75,US,1594688409
493,Tommot,58.96,126.29,80.53,62,43,3.71,RU,1594688520
494,Comodoro Rivadavia,-45.87,-67.5,33.8,64,0,6.93,AR,1594688339
495,Ucluelet,48.93,-125.55,64.0,67,20,16.11,CA,1594688223
496,Chapais,49.78,-74.85,71.6,35,1,6.93,CA,1594688524
497,Kailua,21.4,-157.74,87.8,58,40,11.41,US,1594688449
498,Chany,55.31,76.76,67.32,90,92,5.91,RU,1594688275
499,San Policarpo,12.18,125.51,85.33,72,2,8.88,PH,1594688527
500,Polewali,-3.43,119.34,81.34,72,4,3.27,ID,1594688529
501,São Geraldo do Araguaia,-6.4,-48.55,78.03,65,100,1.39,BR,1594688530
502,Katsuura,35.13,140.3,75.2,94,90,13.87,JP,1594688531
503,Albacete,38.83,-2.0,68.0,77,13,8.05,ES,1594688532
504,Antofagasta,-23.65,-70.4,55.4,76,0,6.93,CL,1594688413
505,Ullapool,57.9,-5.16,52.0,95,100,4.0,GB,1594688535
506,Barguzin,53.62,109.62,73.89,59,0,2.1,RU,1594688536
507,Kayes,14.0,-11.0,77.0,88,20,2.24,ML,1594688537
508,Brewster,41.4,-73.62,77.0,57,1,5.82,US,1594688538
509,Husavik,66.04,-17.34,51.8,87,90,6.93,IS,1594688540
510,Panabá,21.28,-88.27,78.8,86,86,10.04,MX,1594688541
511,Yar-Sale,66.83,70.83,53.29,66,29,16.31,RU,1594688542
512,Haskovo,41.94,25.57,62.6,59,75,8.05,BG,1594688543
513,Namwala,-15.75,26.44,49.03,79,0,1.97,ZM,1594688544
514,Takoradze,4.88,-1.76,75.16,85,48,11.77,GH,1594688546
515,Waiuku,-37.25,174.75,60.8,82,99,3.36,NZ,1594688547
516,Lujiang,31.26,117.28,75.99,100,100,2.24,CN,1594688548
517,Calabozo,8.92,-67.43,76.44,89,56,5.01,VE,1594688549
518,Tay Ninh,11.3,106.1,81.7,81,57,2.17,VN,1594688550
519,Inongo,-1.95,18.27,68.54,93,97,4.83,CD,1594688526
520,Piopio,-38.47,175.02,56.8,91,100,3.44,NZ,1594688553
521,San Juan,-31.54,-68.54,41.38,66,0,1.88,AR,1594688459
522,Zyryanka,65.75,150.85,75.65,34,72,3.87,RU,1594688555
523,Baiquan,47.58,126.08,82.83,58,0,3.0,CN,1594688556
524,Luanda,-8.84,13.23,67.05,88,81,4.34,AO,1594688405
525,Loikaw,19.67,97.21,71.58,91,99,3.33,MM,1594688559
526,Río Bueno,-40.32,-72.97,33.8,100,90,0.6,CL,1594688560
527,Manzhouli,49.6,117.43,72.9,67,100,3.44,CN,1594688561
528,Orán,-23.13,-64.33,64.0,86,100,1.36,AR,1594688563
529,Arman',59.7,150.17,67.15,61,100,5.46,RU,1594688564
530,Moranbah,-22.0,148.05,61.75,35,0,12.03,AU,1594688565
531,Kieta,-6.22,155.63,85.14,62,87,3.76,PG,1594688566
532,Isabela,6.71,121.97,78.8,88,75,3.36,PH,1594688567
533,Itarema,-2.92,-39.92,75.85,74,7,11.3,BR,1594688570
534,Baruun-Urt,46.68,113.28,73.08,56,96,2.24,MN,1594688572
535,Ibrā’,22.69,58.53,81.79,65,0,1.28,OM,1594688574
536,Pyshchug,58.89,45.71,63.27,98,88,5.39,RU,1594688575
537,Price,39.6,-110.81,91.4,15,1,20.8,US,1594688576
538,Örnsköldsvik,63.29,18.72,44.6,93,0,3.36,SE,1594688577
539,Batemans Bay,-35.72,150.18,50.0,83,98,5.01,AU,1594688578
540,Oistins,13.07,-59.53,82.4,78,40,16.11,BB,1594688580
541,Tevaitoa,-16.78,-151.5,79.65,78,100,14.9,PF,1594688581
542,Tak,16.58,98.83,75.2,100,75,3.0,TH,1594688465
543,Omsukchan,62.53,155.8,70.16,49,5,2.77,RU,1594688585
544,Mtwara,-10.27,40.18,69.6,92,88,8.9,TZ,1594688586
545,Adrar,20.5,-10.07,95.49,13,45,6.55,MR,1594688452
546,Ambam,2.38,11.28,68.49,97,99,3.98,CM,1594688588
547,Malayal,7.21,121.94,78.8,88,75,3.36,PH,1594688589
548,Tanout,14.97,8.89,83.43,50,41,10.78,NE,1594688428
549,Broken Hill,-31.95,141.43,46.4,87,0,9.17,AU,1594688592
550,San Miguel de Cozumel,20.51,-86.95,86.0,70,5,8.05,MX,1594688593
551,Vangaindrano,-23.35,47.6,63.72,92,9,3.67,MG,1594688594
552,Charters Towers,-20.1,146.27,62.87,35,100,13.65,AU,1594688595
553,Borazjan,29.27,51.22,87.17,20,0,3.62,IR,1594688597
